{"type":"FeatureCollection","name":"stattflucht_iparkring_startziel_4326","crs":{"type":"name","properties":{"name":"urn:ogc:def:crs:OGC:1.3:CRS84"}},"features":[{"type":"Feature","properties":{"NAME":"Charlottenburg","BEMERKUNG":"S-Bhf"},"geometry":{"type":"Point","coordinates":[13.303014099964384,52.50447689876734]}},{"type":"Feature","properties":{"NAME":"Südkreuz","BEMERKUNG":"S-Bhf"},"geometry":{"type":"Point","coordinates":[13.364988764283053,52.476354319450266]}},{"type":"Feature","properties":{"NAME":"Goethestr. 46","BEMERKUNG":"Home"},"geometry":{"type":"Point","coordinates":[13.307867102295166,52.50873911999625]}},{"type":"Feature","properties":{"NAME":"Schlesisches Tor","BEMERKUNG":"U-Bhf"},"geometry":{"type":"Point","coordinates":[13.441613931219548,52.50088341143469]}},{"type":"Feature","properties":{"NAME":"Schönhauser Allee","BEMERKUNG":"S-Bhf"},"geometry":{"type":"Point","coordinates":[13.415855121098502,52.549173772708194]}},{"type":"Feature","properties":{"NAME":"Rehberge","BEMERKUNG":"U-Bhf"},"geometry":{"type":"Point","coordinates":[13.340276175879273,52.557092608768535]}}]}